{	
	"type": "FeatureCollection",
	"features": [
		{
			"type": "Feature",
			"geometry": {
				"type": "Point",
				"coordinates": [
					-86.362548,
					32.379335,
					0
				]
			},
			"properties": {
				"name": "Maxwell Field",
				"place": "Montgomery, Alabama",
				"course": "Pre-flt Pilot Training",
				"duration": "9 weeks"
			}
		},
		{
			"type": "Feature",
			"geometry": {
				"type": "Point",
				"coordinates": [
					-91.988751,
					30.205466,
					0
				]
			},
			"properties": {
				"name": "Lafayette Regional Airport",
				"place": "Lafayette, Louisianna",
				"course": "Primary Pilot Training",
				"duration": "9 weeks"
			}
		},
		{
			"type": "Feature",
			"geometry": {
				"type": "Point",
				"coordinates": [
					-90.924725,
					36.125467,
					0
				]
			},
			"properties": {
				"name": "Walnut Ridge Flying School",
				"place": "Walnut Ridge, Arkansas",
				"course": "Basic Pilot Training",
				"duration": "9 weeks"
			}
		},
		{
			"type": "Feature",
			"geometry": {
				"type": "Point",
				"coordinates": [
					-89.948953,
					35.959060,
					0
				]
			},
			"properties": {
				"name": "Blytheville Air Force Base",
				"place": "Blytheville, Arkansas",
				"course": "Advanced Pilot Twin Engine Training",
				"duration": "9 weeks"
			}
		},
		{
			"type": "Feature",
			"geometry": {
				"type": "Point",
				"coordinates": [
					-88.441622,
					33.638308,
					0
				]
			},
			"properties": {
				"name": "Columbus Air Force Base",
				"place": "Columbus, Mississippi",
				"course": "Transition 4 Eng.",
				"duration": "9 weeks"
			}
		},
		{
			"type": "Feature",
			"geometry": {
				"type": "Point",
				"coordinates": [
					-79.989278,
					40.436957,
					0
				]
			},
			"properties": {
				"name": "Duquense University",
				"place": "Pittsburg, Pennsylvania",
				"course": "College Training AF",
				"duration": "6 weeks"
			}
		}
	]
}